{
	"results": [
		{
			"address_components": [
				{
					"long_name": "Westbourne Studios",
					"short_name": "Westbourne Studios",
					"types": [
						"premise"
					]
				},
				{
					"long_name": "242",
					"short_name": "242",
					"types": [
						"street_number"
					]
				},
				{
					"long_name": "Acklam Road",
					"short_name": "Acklam Rd",
					"types": [
						"route"
					]
				},
				{
					"long_name": "London",
					"short_name": "London",
					"types": [
						"locality",
						"political"
					]
				},
				{
					"long_name": "London",
					"short_name": "London",
					"types": [
						"postal_town"
					]
				},
				{
					"long_name": "Greater London",
					"short_name": "Greater London",
					"types": [
						"administrative_area_level_2",
						"political"
					]
				},
				{
					"long_name": "England",
					"short_name": "England",
					"types": [
						"administrative_area_level_1",
						"political"
					]
				},
				{
					"long_name": "United Kingdom",
					"short_name": "GB",
					"types": [
						"country",
						"political"
					]
				},
				{
					"long_name": "W10 5JJ",
					"short_name": "W10 5JJ",
					"types": [
						"postal_code"
					]
				}
			],
			"formatted_address": "Westbourne Studios, 242 Acklam Rd, London W10 5JJ, UK",
			"geometry": {
				"location": {
					"lat": 51.5212403,
					"lng": -0.2035948
				},
				"location_type": "ROOFTOP",
				"viewport": {
					"northeast": {
						"lat": 51.52258928029149,
						"lng": -0.202245819708498
					},
					"southwest": {
						"lat": 51.51989131970849,
						"lng": -0.204943780291502
					}
				}
			},
			"place_id": "ChIJja-ClxsQdkgRPkh50Lwrh3g",
			"types": [
				"premise"
			]
		},
		{
			"address_components": [
				{
					"long_name": "240-242",
					"short_name": "240-242",
					"types": [
						"street_number"
					]
				},
				{
					"long_name": "Acklam Road",
					"short_name": "Acklam Rd",
					"types": [
						"route"
					]
				},
				{
					"long_name": "London",
					"short_name": "London",
					"types": [
						"locality",
						"political"
					]
				},
				{
					"long_name": "London",
					"short_name": "London",
					"types": [
						"postal_town"
					]
				},
				{
					"long_name": "Greater London",
					"short_name": "Greater London",
					"types": [
						"administrative_area_level_2",
						"political"
					]
				},
				{
					"long_name": "England",
					"short_name": "England",
					"types": [
						"administrative_area_level_1",
						"political"
					]
				},
				{
					"long_name": "United Kingdom",
					"short_name": "GB",
					"types": [
						"country",
						"political"
					]
				},
				{
					"long_name": "W10",
					"short_name": "W10",
					"types": [
						"postal_code",
						"postal_code_prefix"
					]
				}
			],
			"formatted_address": "240-242 Acklam Rd, London W10, UK",
			"geometry": {
				"bounds": {
					"northeast": {
						"lat": 51.5223402,
						"lng": -0.2035875
					},
					"southwest": {
						"lat": 51.5209856,
						"lng": -0.2060825
					}
				},
				"location": {
					"lat": 51.5212531,
					"lng": -0.2035719
				},
				"location_type": "RANGE_INTERPOLATED",
				"viewport": {
					"northeast": {
						"lat": 51.52301188029149,
						"lng": -0.203486019708498
					},
					"southwest": {
						"lat": 51.5203139197085,
						"lng": -0.206183980291502
					}
				}
			},
			"place_id": "EiEyNDAtMjQyIEFja2xhbSBSZCwgTG9uZG9uIFcxMCwgVUs",
			"types": [
				"street_address"
			]
		},
		{
			"address_components": [
				{
					"long_name": "Fallodon House",
					"short_name": "Fallodon House",
					"types": [
						"premise"
					]
				},
				{
					"long_name": "20",
					"short_name": "20",
					"types": [
						"street_number"
					]
				},
				{
					"long_name": "Tavistock Crescent",
					"short_name": "Tavistock Cres",
					"types": [
						"route"
					]
				},
				{
					"long_name": "London",
					"short_name": "London",
					"types": [
						"locality",
						"political"
					]
				},
				{
					"long_name": "London",
					"short_name": "London",
					"types": [
						"postal_town"
					]
				},
				{
					"long_name": "Greater London",
					"short_name": "Greater London",
					"types": [
						"administrative_area_level_2",
						"political"
					]
				},
				{
					"long_name": "England",
					"short_name": "England",
					"types": [
						"administrative_area_level_1",
						"political"
					]
				},
				{
					"long_name": "United Kingdom",
					"short_name": "GB",
					"types": [
						"country",
						"political"
					]
				},
				{
					"long_name": "W11 1AX",
					"short_name": "W11 1AX",
					"types": [
						"postal_code"
					]
				}
			],
			"formatted_address": "Fallodon House, 20 Tavistock Cres, London W11 1AX, UK",
			"geometry": {
				"location": {
					"lat": 51.5202074,
					"lng": -0.2034371
				},
				"location_type": "ROOFTOP",
				"viewport": {
					"northeast": {
						"lat": 51.52155638029149,
						"lng": -0.202088119708498
					},
					"southwest": {
						"lat": 51.5188584197085,
						"lng": -0.204786080291502
					}
				}
			},
			"place_id": "ChIJQca5hxsQdkgRMLNdRIVwOxw",
			"types": [
				"premise"
			]
		},
		{
			"address_components": [
				{
					"long_name": "London",
					"short_name": "London",
					"types": [
						"locality",
						"political"
					]
				},
				{
					"long_name": "London",
					"short_name": "London",
					"types": [
						"postal_town"
					]
				},
				{
					"long_name": "Greater London",
					"short_name": "Greater London",
					"types": [
						"administrative_area_level_2",
						"political"
					]
				},
				{
					"long_name": "England",
					"short_name": "England",
					"types": [
						"administrative_area_level_1",
						"political"
					]
				},
				{
					"long_name": "United Kingdom",
					"short_name": "GB",
					"types": [
						"country",
						"political"
					]
				}
			],
			"formatted_address": "London, UK",
			"geometry": {
				"bounds": {
					"northeast": {
						"lat": 51.6723432,
						"lng": 0.148271
					},
					"southwest": {
						"lat": 51.38494009999999,
						"lng": -0.3514683
					}
				},
				"location": {
					"lat": 51.5073509,
					"lng": -0.1277583
				},
				"location_type": "APPROXIMATE",
				"viewport": {
					"northeast": {
						"lat": 51.6723432,
						"lng": 0.148271
					},
					"southwest": {
						"lat": 51.38494009999999,
						"lng": -0.3514683
					}
				}
			},
			"place_id": "ChIJdd4hrwug2EcRmSrV3Vo6llI",
			"types": [
				"locality",
				"political"
			]
		},
		{
			"address_components": [
				{
					"long_name": "W10 5JJ",
					"short_name": "W10 5JJ",
					"types": [
						"postal_code"
					]
				},
				{
					"long_name": "Acklam Road",
					"short_name": "Acklam Rd",
					"types": [
						"route"
					]
				},
				{
					"long_name": "London",
					"short_name": "London",
					"types": [
						"locality",
						"political"
					]
				},
				{
					"long_name": "London",
					"short_name": "London",
					"types": [
						"postal_town"
					]
				},
				{
					"long_name": "Greater London",
					"short_name": "Greater London",
					"types": [
						"administrative_area_level_2",
						"political"
					]
				},
				{
					"long_name": "England",
					"short_name": "England",
					"types": [
						"administrative_area_level_1",
						"political"
					]
				},
				{
					"long_name": "United Kingdom",
					"short_name": "GB",
					"types": [
						"country",
						"political"
					]
				}
			],
			"formatted_address": "Acklam Rd, London W10 5JJ, UK",
			"geometry": {
				"bounds": {
					"northeast": {
						"lat": 51.5220869,
						"lng": -0.2022131
					},
					"southwest": {
						"lat": 51.5208224,
						"lng": -0.2040761
					}
				},
				"location": {
					"lat": 51.5214542,
					"lng": -0.2030984
				},
				"location_type": "APPROXIMATE",
				"viewport": {
					"northeast": {
						"lat": 51.5228036302915,
						"lng": -0.201795619708498
					},
					"southwest": {
						"lat": 51.5201056697085,
						"lng": -0.204493580291502
					}
				}
			},
			"place_id": "ChIJj9JhnxsQdkgRb5GhPkpx4Oo",
			"types": [
				"postal_code"
			]
		},
		{
			"address_components": [
				{
					"long_name": "W10",
					"short_name": "W10",
					"types": [
						"postal_code",
						"postal_code_prefix"
					]
				},
				{
					"long_name": "London",
					"short_name": "London",
					"types": [
						"locality",
						"political"
					]
				},
				{
					"long_name": "London",
					"short_name": "London",
					"types": [
						"postal_town"
					]
				},
				{
					"long_name": "Greater London",
					"short_name": "Greater London",
					"types": [
						"administrative_area_level_2",
						"political"
					]
				},
				{
					"long_name": "England",
					"short_name": "England",
					"types": [
						"administrative_area_level_1",
						"political"
					]
				},
				{
					"long_name": "United Kingdom",
					"short_name": "GB",
					"types": [
						"country",
						"political"
					]
				}
			],
			"formatted_address": "London W10, UK",
			"geometry": {
				"bounds": {
					"northeast": {
						"lat": 51.5331516,
						"lng": -0.2020944
					},
					"southwest": {
						"lat": 51.5108117,
						"lng": -0.2328333
					}
				},
				"location": {
					"lat": 51.52269709999999,
					"lng": -0.2146099
				},
				"location_type": "APPROXIMATE",
				"viewport": {
					"northeast": {
						"lat": 51.5331516,
						"lng": -0.2020944
					},
					"southwest": {
						"lat": 51.5108117,
						"lng": -0.2328333
					}
				}
			},
			"place_id": "ChIJQ3DghNgPdkgRdMsc69piFnI",
			"types": [
				"postal_code",
				"postal_code_prefix"
			]
		},
		{
			"address_components": [
				{
					"long_name": "Royal Borough of Kensington and Chelsea",
					"short_name": "Royal Borough of Kensington and Chelsea",
					"types": [
						"administrative_area_level_3",
						"political"
					]
				},
				{
					"long_name": "London",
					"short_name": "London",
					"types": [
						"locality",
						"political"
					]
				},
				{
					"long_name": "London",
					"short_name": "London",
					"types": [
						"postal_town"
					]
				},
				{
					"long_name": "Greater London",
					"short_name": "Greater London",
					"types": [
						"administrative_area_level_2",
						"political"
					]
				},
				{
					"long_name": "England",
					"short_name": "England",
					"types": [
						"administrative_area_level_1",
						"political"
					]
				},
				{
					"long_name": "United Kingdom",
					"short_name": "GB",
					"types": [
						"country",
						"political"
					]
				}
			],
			"formatted_address": "Royal Borough of Kensington and Chelsea, London, UK",
			"geometry": {
				"bounds": {
					"northeast": {
						"lat": 51.53035269999999,
						"lng": -0.1498439
					},
					"southwest": {
						"lat": 51.4772216,
						"lng": -0.2287276
					}
				},
				"location": {
					"lat": 51.4990805,
					"lng": -0.1938253
				},
				"location_type": "APPROXIMATE",
				"viewport": {
					"northeast": {
						"lat": 51.53035269999999,
						"lng": -0.1498439
					},
					"southwest": {
						"lat": 51.4772216,
						"lng": -0.2287276
					}
				}
			},
			"place_id": "ChIJQzlq8vcPdkgRMGfsoi2uDgQ",
			"types": [
				"administrative_area_level_3",
				"political"
			]
		},
		{
			"address_components": [
				{
					"long_name": "London",
					"short_name": "London",
					"types": [
						"postal_town"
					]
				},
				{
					"long_name": "Greater London",
					"short_name": "Greater London",
					"types": [
						"administrative_area_level_2",
						"political"
					]
				},
				{
					"long_name": "England",
					"short_name": "England",
					"types": [
						"administrative_area_level_1",
						"political"
					]
				},
				{
					"long_name": "United Kingdom",
					"short_name": "GB",
					"types": [
						"country",
						"political"
					]
				}
			],
			"formatted_address": "London, UK",
			"geometry": {
				"bounds": {
					"northeast": {
						"lat": 51.6723432,
						"lng": 0.148271
					},
					"southwest": {
						"lat": 51.38494009999999,
						"lng": -0.3514683
					}
				},
				"location": {
					"lat": 51.5569879,
					"lng": -0.1411791
				},
				"location_type": "APPROXIMATE",
				"viewport": {
					"northeast": {
						"lat": 51.6723432,
						"lng": 0.148271
					},
					"southwest": {
						"lat": 51.38494009999999,
						"lng": -0.3514683
					}
				}
			},
			"place_id": "ChIJ8_MXt1sbdkgRCrIAOXkukUk",
			"types": [
				"postal_town"
			]
		},
		{
			"address_components": [
				{
					"long_name": "Greater London",
					"short_name": "Greater London",
					"types": [
						"administrative_area_level_2",
						"political"
					]
				},
				{
					"long_name": "England",
					"short_name": "England",
					"types": [
						"administrative_area_level_1",
						"political"
					]
				},
				{
					"long_name": "United Kingdom",
					"short_name": "GB",
					"types": [
						"country",
						"political"
					]
				}
			],
			"formatted_address": "Greater London, UK",
			"geometry": {
				"bounds": {
					"northeast": {
						"lat": 51.6918726,
						"lng": 0.3339957
					},
					"southwest": {
						"lat": 51.28676,
						"lng": -0.5103751
					}
				},
				"location": {
					"lat": 51.4309209,
					"lng": -0.0936496
				},
				"location_type": "APPROXIMATE",
				"viewport": {
					"northeast": {
						"lat": 51.6918726,
						"lng": 0.3339957
					},
					"southwest": {
						"lat": 51.28676,
						"lng": -0.5103751
					}
				}
			},
			"place_id": "ChIJb-IaoQug2EcRi-m4hONz8S8",
			"types": [
				"administrative_area_level_2",
				"political"
			]
		},
		{
			"address_components": [
				{
					"long_name": "London Metropolitan Area",
					"short_name": "London Metropolitan Area",
					"types": [
						"political"
					]
				},
				{
					"long_name": "England",
					"short_name": "England",
					"types": [
						"administrative_area_level_1",
						"political"
					]
				},
				{
					"long_name": "United Kingdom",
					"short_name": "GB",
					"types": [
						"country",
						"political"
					]
				}
			],
			"formatted_address": "London Metropolitan Area, UK",
			"geometry": {
				"bounds": {
					"northeast": {
						"lat": 51.8221472,
						"lng": 0.4911679
					},
					"southwest": {
						"lat": 51.1051517,
						"lng": -0.5392819999999999
					}
				},
				"location": {
					"lat": 51.4309209,
					"lng": -0.0936496
				},
				"location_type": "APPROXIMATE",
				"viewport": {
					"northeast": {
						"lat": 51.8221472,
						"lng": 0.4911679
					},
					"southwest": {
						"lat": 51.1051517,
						"lng": -0.5392819999999999
					}
				}
			},
			"place_id": "ChIJ3SIYXV0CdkgRmRTYeONPi-U",
			"types": [
				"political"
			]
		},
		{
			"address_components": [
				{
					"long_name": "England",
					"short_name": "England",
					"types": [
						"administrative_area_level_1",
						"political"
					]
				},
				{
					"long_name": "United Kingdom",
					"short_name": "GB",
					"types": [
						"country",
						"political"
					]
				}
			],
			"formatted_address": "England, UK",
			"geometry": {
				"bounds": {
					"northeast": {
						"lat": 55.81165979999999,
						"lng": 1.7629159
					},
					"southwest": {
						"lat": 49.8647411,
						"lng": -6.4185458
					}
				},
				"location": {
					"lat": 52.3555177,
					"lng": -1.1743197
				},
				"location_type": "APPROXIMATE",
				"viewport": {
					"northeast": {
						"lat": 55.81165979999999,
						"lng": 1.7629159
					},
					"southwest": {
						"lat": 49.8647411,
						"lng": -6.4185458
					}
				}
			},
			"place_id": "ChIJ39UebIqp0EcRqI4tMyWV4fQ",
			"types": [
				"administrative_area_level_1",
				"political"
			]
		},
		{
			"address_components": [
				{
					"long_name": "United Kingdom",
					"short_name": "GB",
					"types": [
						"country",
						"political"
					]
				}
			],
			"formatted_address": "United Kingdom",
			"geometry": {
				"bounds": {
					"northeast": {
						"lat": 60.91569999999999,
						"lng": 33.9165549
					},
					"southwest": {
						"lat": 34.5614,
						"lng": -8.8988999
					}
				},
				"location": {
					"lat": 55.378051,
					"lng": -3.435973
				},
				"location_type": "APPROXIMATE",
				"viewport": {
					"northeast": {
						"lat": 60.91569999999999,
						"lng": 33.9165549
					},
					"southwest": {
						"lat": 34.5614,
						"lng": -8.8988999
					}
				}
			},
			"place_id": "ChIJqZHHQhE7WgIReiWIMkOg-MQ",
			"types": [
				"country",
				"political"
			]
		}
	],
	"status": "OK"
}
